{
  "type": "FeatureCollection",
  "features": [
    {
      "type": "Feature",
      "geometry": {
        "type": "Point",
        "coordinates": [139.6917, 35.6895]
      },
      "properties": {
        "name": "Tokyo",
        "country": "Japan"
      }
    },
    {
      "type": "Feature",
      "geometry": {
        "type": "Point",
        "coordinates": [135.5023, 34.6937]
      },
      "properties": {
        "name": "Osaka",
        "country": "Japan"
      }
    },
    {
      "type": "Feature",
      "geometry": {
        "type": "Point",
        "coordinates": [115.2126, -8.6705]
      },
      "properties": {
        "name": "Bali",
        "country": "Indonesia"
      }
    },
    {
      "type": "Feature",
      "geometry": {
        "type": "Point",
        "coordinates": [101.6869, 3.1390]
      },
      "properties": {
        "name": "Kuala Lumpur",
        "country": "Malaysia"
      }
    },
    {
      "type": "Feature",
      "geometry": {
        "type": "Point",
        "coordinates": [100.4846, 5.2632]
      },
      "properties": {
        "name": "Penang",
        "country": "Malaysia"
      }
    },
    {
      "type": "Feature",
      "geometry": {
        "type": "Point",
        "coordinates": [120.9842, 14.5995]
      },
      "properties": {
        "name": "Manila",
        "country": "Philippines"
      }
    },
    {
      "type": "Feature",
      "geometry": {
        "type": "Point",
        "coordinates": [126.9780, 37.5665]
      },
      "properties": {
        "name": "Seoul",
        "country": "South Korea"
      }
    },
    {
      "type": "Feature",
      "geometry": {
        "type": "Point",
        "coordinates": [105.8342, 21.0278]
      },
      "properties": {
        "name": "Hanoi",
        "country": "Vietnam"
      }
    },
    {
      "type": "Feature",
      "geometry": {
        "type": "Point",
        "coordinates": [100.5018, 13.7563]
      },
      "properties": {
        "name": "Bangkok",
        "country": "Thailand"
      }
    },
    {
      "type": "Feature",
      "geometry": {
        "type": "Point",
        "coordinates": [13.4050, 52.5200]
      },
      "properties": {
        "name": "Berlin",
        "country": "Germany"
      }
    },
    {
      "type": "Feature",
      "geometry": {
        "type": "Point",
        "coordinates": [121.5654, 25.0330]
      },
      "properties": {
        "name": "Taipei",
        "country": "Taiwan"
      }
    },
    {
      "type": "Feature",
      "geometry": {
        "type": "Point",
        "coordinates": [-118.2437, 34.0522]
      },
      "properties": {
        "name": "Los Angeles",
        "country": "USA"
      }
    },
    {
      "type": "Feature",
      "geometry": {
        "type": "Point",
        "coordinates": [124.6319, 8.4543]
      },
      "properties": {
        "name": "Cagayan de Oro",
        "country": "Philippines"
      }
    },
    {
      "type": "Feature",
      "geometry": {
        "type": "Point",
        "coordinates": [123.8854, 10.3157]
      },
      "properties": {
        "name": "Cebu",
        "country": "Philippines"
      }
    },
    {
      "type": "Feature",
      "geometry": {
        "type": "Point",
        "coordinates": [124.7144, 9.1678]
      },
      "properties": {
        "name": "Camiguin",
        "country": "Philippines"
      }
    },
    {
      "type": "Feature",
      "geometry": {
        "type": "Point",
        "coordinates": [124.2373, 9.8490]
      },
      "properties": {
        "name": "Bohol",
        "country": "Philippines"
      }
    },
    {
      "type": "Feature",
      "geometry": {
        "type": "Point",
        "coordinates": [125.6088, 7.0647]
      },
      "properties": {
        "name": "Davao",
        "country": "Philippines"
      }
    },
    {
      "type": "Feature",
      "geometry": {
        "type": "Point",
        "coordinates": [98.3922, 7.8804]
      },
      "properties": {
        "name": "Phuket",
        "country": "Thailand"
      }
    },
    {
      "type": "Feature",
      "geometry": {
        "type": "Point",
        "coordinates": [98.9853, 18.7883]
      },
      "properties": {
        "name": "Chiang Mai",
        "country": "Thailand"
      }
    },
    {
      "type": "Feature",
      "geometry": {
        "type": "Point",
        "coordinates": [9.9937, 53.5511]
      },
      "properties": {
        "name": "Hamburg",
        "country": "Germany"
      }
    },
    {
      "type": "Feature",
      "geometry": {
        "type": "Point",
        "coordinates": [8.6821, 50.1109]
      },
      "properties": {
        "name": "Frankfurt",
        "country": "Germany"
      }
    },
    {
      "type": "Feature",
      "geometry": {
        "type": "Point",
        "coordinates": [11.5820, 48.1351]
      },
      "properties": {
        "name": "Munich",
        "country": "Germany"
      }
    },
    {
      "type": "Feature",
      "geometry": {
        "type": "Point",
        "coordinates": [106.6602, 10.7626]
      },
      "properties": {
        "name": "Ho Chi Minh",
        "country": "Vietnam"
      }
    },
    {
      "type": "Feature",
      "geometry": {
        "type": "Point",
        "coordinates": [103.7414, 1.4927]
      },
      "properties": {
        "name": "Johor Bahru",
        "country": "Malaysia"
      }
    },
    {
      "type": "Feature",
      "geometry": {
        "type": "Point",
        "coordinates": [102.2501, 2.1896]
      },
      "properties": {
        "name": "Malacca",
        "country": "Malaysia"
      }
    },
    {
      "type": "Feature",
      "geometry": {
        "type": "Point",
        "coordinates": [-74.0060, 40.7128]
      },
      "properties": {
        "name": "New York City",
        "country": "USA"
      }
    },
    {
      "type": "Feature",
      "geometry": {
        "type": "Point",
        "coordinates": [120.8030, 23.5090]
      },
      "properties": {
        "name": "Alishan",
        "country": "Taiwan"
      }
    },
    {
      "type": "Feature",
      "geometry": {
        "type": "Point",
        "coordinates": [141.3545, 43.0618]
      },
      "properties": {
        "name": "Hokkaido",
        "country": "Japan"
      }
    },
    {
      "type": "Feature",
      "geometry": {
        "type": "Point",
        "coordinates": [103.82, 1.35]
      },
      "properties": {
        "name": "Singapore",
        "country": "Singapore"
      }
    },
    {
      "type": "Feature",
      "geometry": {
        "type": "Point",
        "coordinates": [-74.4057, 40.0583]
      },
      "properties": {
        "name": "New Jersey",
        "country": "USA"
      }
    },
    {
      "type": "Feature",
      "geometry": {
        "type": "Point",
        "coordinates": [-75.1652, 39.9526]
      },
      "properties": {
        "name": "Philadelphia",
        "country": "USA"
      }
    },
    {
      "type": "Feature",
      "geometry": {
        "type": "Point",
        "coordinates": [-77.0369, 38.9072]
      },
      "properties": {
        "name": "Washington",
        "country": "USA"
      }
    },
    {
      "type": "Feature",
      "geometry": {
        "type": "Point",
        "coordinates": [-117.1611, 32.7157]
      },
      "properties": {
        "name": "San Diego",
        "country": "USA"
      }
    }
  ]
}